{
"type": "FeatureCollection",
"crs": { "type": "name", "properties": { "name": "urn:ogc:def:crs:OGC:1.3:CRS84" } },
"features": [
{ "type": "Feature", "properties": { "type": "Brewer", "county": "Monroe", "official_business_name": "Narragansett Brewing Company", "name": "Narragansett Brewing Company", "address": "445 St Paul St", "city": "Rochester", "state": "NY", "zip": 14605, "lat": 43.16459, "lng": -77.61446, "type_generic": "other" }, "geometry": { "type": "Point", "coordinates": [ -77.61446, 43.16459 ] } },
{ "type": "Feature", "properties": { "type": "Brewer", "county": "Monroe", "official_business_name": "High Falls Operating Co Llc\/Licensing Co Llc", "name": "High Falls Brewing Co\/North American Breweries", "address": "445 St Paul St", "city": "Rochester", "state": "NY", "zip": 14605, "lat": 43.16493105, "lng": -77.61437097, "type_generic": "other" }, "geometry": { "type": "Point", "coordinates": [ -77.61437097000001, 43.16493105 ] } },
{ "type": "Feature", "properties": { "type": "Brewer", "county": "Monroe", "official_business_name": "Mark Anthony Brewing Inc", "name": "Mikes Hard Lemonade Co", "address": "445 St Paul St", "city": "Rochester", "state": "NY", "zip": 14605, "lat": 43.16493105, "lng": -77.61437097, "type_generic": "other" }, "geometry": { "type": "Point", "coordinates": [ -77.61437097000001, 43.16493105 ] } },
{ "type": "Feature", "properties": { "type": "Brewer", "county": "Monroe", "official_business_name": "Lidestri Beverages Llc", "name": "Lidestri Spirits", "address": "1050 Lee Rd", "city": "Rochester", "state": "NY", "zip": 14606, "lat": 43.18771, "lng": -77.6798, "type_generic": "other" }, "geometry": { "type": "Point", "coordinates": [ -77.6798, 43.18771 ] } },
{ "type": "Feature", "properties": { "type": "Brewer", "county": "Ontario", "official_business_name": "Constellation Brands Inc", "name": "Constellation Brands ", "address": "116 Buffalo St", "city": "Canandaigua", "state": "NY", "zip": 14424, "lat": 42.8964164, "lng": -77.29376828, "type_generic": "other" }, "geometry": { "type": "Point", "coordinates": [ -77.29376828, 42.896416399999985 ] } },
{ "type": "Feature", "properties": { "type": "Distiller A-1", "county": "Tompkins", "official_business_name": "Six Mile Enterprises Llc", "name": "Six Mile Creek Vineyard", "address": "1551 Slaterville Rd", "city": "Ithaca", "state": "NY", "zip": 14850, "lat": 42.41575, "lng": -76.45534, "type_generic": "other" }, "geometry": { "type": "Point", "coordinates": [ -76.45534, 42.41575 ] } },
{ "type": "Feature", "properties": { "type": "Distiller A-1", "county": "Schuyler", "official_business_name": "Finger Lakes Distilling Llc", "name": "Finger Lakes Distilling ", "address": "4676 Nys Route 414", "city": "Burdett", "state": "NY", "zip": 14818, "lat": 42.4602, "lng": -76.8636, "type_generic": "other" }, "geometry": { "type": "Point", "coordinates": [ -76.8636, 42.4602 ] } },
{ "type": "Feature", "properties": { "type": "Distiller B", "county": "Ontario", "official_business_name": "Constellation Brands Inc", "name": "Constellation Brands ", "address": "116 Buffalo St", "city": "Canandaigua", "state": "NY", "zip": 14424, "lat": 42.89829, "lng": -77.29629, "type_generic": "other" }, "geometry": { "type": "Point", "coordinates": [ -77.29629, 42.89829 ] } },
{ "type": "Feature", "properties": { "type": "Distiller B", "county": "Monroe", "official_business_name": "Fishbowl Spirits Llc", "name": "Fishbowl Spirits ", "address": "1050 Lee Rd", "city": "Rochester", "state": "NY", "zip": 14606, "lat": 43.18771, "lng": -77.6798, "type_generic": "other" }, "geometry": { "type": "Point", "coordinates": [ -77.6798, 43.18771 ] } },
{ "type": "Feature", "properties": { "type": "Distiller B-1", "county": "Monroe", "official_business_name": "Lidestri Beverages Llc", "name": "Lidestri Spirits", "address": "1050 Lee Rd", "city": "Rochester", "state": "NY", "zip": 14606, "lat": 43.18740375, "lng": -77.68034844, "type_generic": "other" }, "geometry": { "type": "Point", "coordinates": [ -77.68034844, 43.18740375 ] } },
{ "type": "Feature", "properties": { "type": "Distiller C", "county": "Seneca", "official_business_name": "Swedish Hill Vineyard Inc", "name": "(Distiller \"C\")", "address": "4565 Route 414", "city": "Romulus", "state": "NY", "zip": 14541, "lat": 42.21985421, "lng": -76.97419268, "type_generic": "other" }, "geometry": { "type": "Point", "coordinates": [ -76.97419268, 42.21985421 ] } },
{ "type": "Feature", "properties": { "type": "Farm Brewer", "county": "Steuben", "official_business_name": "Chautauqua Brewing Company Llc", "name": "The Brewery Of Broken Dreams", "address": "8319 Pleasant Valley Rd", "city": "Hammondsport", "state": "NY", "zip": 14840, "lat": 42.40467078, "lng": -77.24307859, "type_generic": "other" }, "geometry": { "type": "Point", "coordinates": [ -77.24307859, 42.404670779999989 ] } },
{ "type": "Feature", "properties": { "type": "Farm Brewer", "county": "Tompkins", "official_business_name": "Liquid State Brewing Company Inc", "name": "Liquid State Brewing Company ", "address": "620 W Green St", "city": "Ithaca", "state": "NY", "zip": 14850, "lat": 42.43872, "lng": -76.50768, "type_generic": "other" }, "geometry": { "type": "Point", "coordinates": [ -76.50768, 42.43872 ] } },
{ "type": "Feature", "properties": { "type": "Farm Brewer", "county": "Monroe", "official_business_name": "Fifth Frame Brewing Co Llc", "name": "Fifth Frame Brewing Co ", "address": "138 Joseph Ave", "city": "Rochester", "state": "NY", "zip": 14605, "lat": 43.16586, "lng": -77.60614, "type_generic": "other" }, "geometry": { "type": "Point", "coordinates": [ -77.60614, 43.16586 ] } },
{ "type": "Feature", "properties": { "type": "Farm Brewer", "county": "Steuben", "official_business_name": "Keg And Barrel Brewing Company Inc", "name": "Keg And Barrel Brewing Company", "address": "14720 State Rte 54", "city": "Dundee", "state": "NY", "zip": 14837, "lat": 42.49206, "lng": -77.11955, "type_generic": "other" }, "geometry": { "type": "Point", "coordinates": [ -77.11955, 42.49206 ] } },
{ "type": "Feature", "properties": { "type": "Farm Brewer", "county": "Yates", "official_business_name": "Seneca Lake Brewing Company Llc", "name": "Seneca Lake Brewing Company ", "address": "4520 State Rte 14", "city": "Rock Stream", "state": "NY", "zip": 14878, "lat": 42.45345, "lng": -76.91001, "type_generic": "other" }, "geometry": { "type": "Point", "coordinates": [ -76.91001, 42.45345 ] } },
{ "type": "Feature", "properties": { "type": "Farm Brewer", "county": "Livingston", "official_business_name": "No Bs Brew Company Llc", "name": "No Bs Brew Company ", "address": "3474 Bronson Hill Rd", "city": "Livonia", "state": "NY", "zip": 14487, "lat": 42.83377, "lng": -77.69192, "type_generic": "other" }, "geometry": { "type": "Point", "coordinates": [ -77.69192, 42.83377 ] } },
{ "type": "Feature", "properties": { "type": "Farm Brewer", "county": "Yates", "official_business_name": "Vineyard View Winery Llc", "name": "Vineyard View Winery ", "address": "2971 Williams Hill Rd", "city": "Keuka Park", "state": "NY", "zip": 14478, "lat": 42.62358, "lng": -77.10254, "type_generic": "other" }, "geometry": { "type": "Point", "coordinates": [ -77.10254, 42.62358 ] } },
{ "type": "Feature", "properties": { "type": "Farm Brewer", "county": "Seneca", "official_business_name": "Bottomless Brewing Llc", "name": "Bottomless Brewing ", "address": "3543 E Lake Rd", "city": "Geneva", "state": "NY", "zip": 14456, "lat": 42.85389, "lng": -76.93345, "type_generic": "other" }, "geometry": { "type": "Point", "coordinates": [ -76.93345, 42.85389 ] } },
{ "type": "Feature", "properties": { "type": "Farm Brewer", "county": "Steuben", "official_business_name": "Steuben Brewing Company Llc", "name": "Steuben Brewing Company ", "address": "10286 Judson Rd", "city": "Hammondsport", "state": "NY", "zip": 148409668, "lat": 42.50379629, "lng": -77.18650658, "type_generic": "other" }, "geometry": { "type": "Point", "coordinates": [ -77.18650658, 42.50379629 ] } },
{ "type": "Feature", "properties": { "type": "Farm Brewer", "county": "Monroe", "official_business_name": "Fairport Brewing Company Llc", "name": "Fairport Brewing Company", "address": "1044 University Ave", "city": "Rochester", "state": "NY", "zip": 14607, "lat": 43.15315, "lng": -77.57358, "type_generic": "other" }, "geometry": { "type": "Point", "coordinates": [ -77.57358, 43.15315 ] } },
{ "type": "Feature", "properties": { "type": "Farm Distiller D", "county": "Seneca", "official_business_name": "Martins Honey Farm & Meadery Llc", "name": "Hidden Marsh Distillery", "address": "2981 Auburn Road", "city": "Seneca Falls", "state": "NY", "zip": 13148, "lat": 42.9548491, "lng": -76.75689926, "type_generic": "other" }, "geometry": { "type": "Point", "coordinates": [ -76.75689926, 42.9548491 ] } },
{ "type": "Feature", "properties": { "type": "Farm Distiller D", "county": "Wayne", "official_business_name": "Celk Distilling Llc", "name": "Apple C'Ntry Spirits, Silverback Dist, Rootstock", "address": "3274 Eddy Rd", "city": "Williamson", "state": "NY", "zip": 14589, "lat": 43.20156169, "lng": -77.22518945, "type_generic": "other" }, "geometry": { "type": "Point", "coordinates": [ -77.22518945, 43.20156169 ] } },
{ "type": "Feature", "properties": { "type": "Farm Distiller D", "county": "Schuyler", "official_business_name": "Damiani Wine Cellars Llc", "name": "Damiani Wine Cellars", "address": "5281 Peach Orchard Rd", "city": "Hector", "state": "NY", "zip": 14841, "lat": 42.49543, "lng": -76.88049, "type_generic": "other" }, "geometry": { "type": "Point", "coordinates": [ -76.88049, 42.49543 ] } },
{ "type": "Feature", "properties": { "type": "Farm Distiller D", "county": "Seneca", "official_business_name": "Varick Winery & Vineyard Llc", "name": "Varick Winery & Vineyard ", "address": "5102 Rte 89", "city": "Romulus", "state": "NY", "zip": 14541, "lat": 42.7773, "lng": -76.77022, "type_generic": "other" }, "geometry": { "type": "Point", "coordinates": [ -76.77022, 42.7773 ] } },
{ "type": "Feature", "properties": { "type": "Micro Brewer", "county": "Monroe", "official_business_name": "Fifth Frame Brewing Co Llc", "name": "Fifth Frame Brewing Co ", "address": "138 Joseph Ave", "city": "Rochester", "state": "NY", "zip": 14605, "lat": 43.16586, "lng": -77.60614, "type_generic": "other" }, "geometry": { "type": "Point", "coordinates": [ -77.60614, 43.16586 ] } },
{ "type": "Feature", "properties": { "type": "Micro Brewer", "county": "Tompkins", "official_business_name": "Liquid State Brewing Company Inc", "name": "Liquid State Brewing Company ", "address": "620 W Green St", "city": "Ithaca", "state": "NY", "zip": 14850, "lat": 42.43872, "lng": -76.50768, "type_generic": "other" }, "geometry": { "type": "Point", "coordinates": [ -76.50768, 42.43872 ] } },
{ "type": "Feature", "properties": { "type": "Micro Brewer", "county": "Livingston", "official_business_name": "No Bs Brew Company Llc", "name": "No Bs Brew Company ", "address": "3474 Bronson Hill Rd", "city": "Livonia", "state": "NY", "zip": 14487, "lat": 42.83377, "lng": -77.69192, "type_generic": "other" }, "geometry": { "type": "Point", "coordinates": [ -77.69192, 42.83377 ] } },
{ "type": "Feature", "properties": { "type": "Micro Brewer", "county": "Monroe", "official_business_name": "Winery Exchange Inc", "name": "World Brews", "address": "445 St Paul St", "city": "Rochester", "state": "NY", "zip": 14605, "lat": 43.16493105, "lng": -77.61437097, "type_generic": "other" }, "geometry": { "type": "Point", "coordinates": [ -77.61437097000001, 43.16493105 ] } },
{ "type": "Feature", "properties": { "type": "Micro Brewer", "county": "Seneca", "official_business_name": "Irish Mafia Brewing Co Llc, The", "name": "Irish Mafia Brewing Co , The", "address": "623 Lerch Rd", "city": "Geneva", "state": "NY", "zip": 14456, "lat": 42.82332, "lng": -76.92369, "type_generic": "other" }, "geometry": { "type": "Point", "coordinates": [ -76.92369, 42.82332 ] } },
{ "type": "Feature", "properties": { "type": "Micro Brewer", "county": "Steuben", "official_business_name": "Steuben Brewing Company Llc", "name": "Steuben Brewing Company ", "address": "10286 Judson Rd", "city": "Hammondsport", "state": "NY", "zip": 14840, "lat": 42.50379629, "lng": -77.18650658, "type_generic": "other" }, "geometry": { "type": "Point", "coordinates": [ -77.18650658, 42.50379629 ] } },
{ "type": "Feature", "properties": { "type": "Micro Brewer", "county": "Seneca", "official_business_name": "Wagner Valley Brewing Llc", "name": "Wagner Brewing Co", "address": "9322 Route 414", "city": "Lodi", "state": "NY", "zip": 14860, "lat": 42.57353499, "lng": -76.85819852, "type_generic": "other" }, "geometry": { "type": "Point", "coordinates": [ -76.85819852, 42.573534990000013 ] } },
{ "type": "Feature", "properties": { "type": "Micro Brewer", "county": "Seneca", "official_business_name": "Bottomless Brewing Llc", "name": "Bottomless Brewing ", "address": "3543 E Lake Rd", "city": "Geneva", "state": "NY", "zip": 14456, "lat": 42.85387, "lng": -76.93345, "type_generic": "other" }, "geometry": { "type": "Point", "coordinates": [ -76.93345, 42.85387 ] } },
{ "type": "Feature", "properties": { "type": "Micro Brewer", "county": "Ontario", "official_business_name": "Young Lion Brewing Company Llc", "name": "Young Lion Brewing Company ", "address": "24 Lakeshore Dr", "city": "Canandaigua", "state": "NY", "zip": 14424, "lat": 42.87577, "lng": -77.26992, "type_generic": "other" }, "geometry": { "type": "Point", "coordinates": [ -77.26992, 42.87577 ] } },
{ "type": "Feature", "properties": { "type": "Micro Brewer", "county": "Schuyler", "official_business_name": "Grist Iron Brewing Llc", "name": "Grist Iron Brewing Company", "address": "4880 Ny Rte 414", "city": "Burdett", "state": "NY", "zip": 14818, "lat": 42.47002, "lng": -76.86684, "type_generic": "other" }, "geometry": { "type": "Point", "coordinates": [ -76.86684, 42.47002 ] } },
{ "type": "Feature", "properties": { "type": "Micro Brewer", "county": "Schuyler", "official_business_name": "Donna D Lucent", "name": "Pompous Ass Wine Company", "address": "4499 Rte 14", "city": "Rock Stream", "state": "NY", "zip": 14878, "lat": 42.45084, "lng": -76.91037, "type_generic": "other" }, "geometry": { "type": "Point", "coordinates": [ -76.91037, 42.45084 ] } },
{ "type": "Feature", "properties": { "type": "Micro Brewer", "county": "Monroe", "official_business_name": "Nine Maidens Brewing Company Llc", "name": "Nine Maidens Brewing Company ", "address": "1344 University Ave", "city": "Rochester", "state": "NY", "zip": 14607, "lat": 43.15061, "lng": -77.56624, "type_generic": "other" }, "geometry": { "type": "Point", "coordinates": [ -77.56624, 43.15061 ] } },
{ "type": "Feature", "properties": { "type": "Micro Brewer", "county": "Monroe", "official_business_name": "Sager Beer Works Llc", "name": "Sager Beer Works", "address": "46 Sager Dr", "city": "Rochester", "state": "NY", "zip": 14607, "lat": 43.15056, "lng": -77.56993, "type_generic": "other" }, "geometry": { "type": "Point", "coordinates": [ -77.56993, 43.15056 ] } },
{ "type": "Feature", "properties": { "type": "Micro Brewer", "county": "Schuyler", "official_business_name": "Two Goats Brewing Llc", "name": "Two Goats Brewing ", "address": "5027A State Rte 414 (Basement)", "city": "Burdett", "state": "NY", "zip": 14818, "lat": 42.4775359, "lng": -76.86894671, "type_generic": "other" }, "geometry": { "type": "Point", "coordinates": [ -76.86894671, 42.4775359 ] } },
{ "type": "Feature", "properties": { "type": "Micro Brewer", "county": "Monroe", "official_business_name": "Shipyard Brewing Company Llc", "name": "Shipyard Brewing Company ", "address": "445 Saint Paul St", "city": "Rochester", "state": "NY", "zip": 14605, "lat": 43.16459, "lng": -77.61446, "type_generic": "other" }, "geometry": { "type": "Point", "coordinates": [ -77.61446, 43.16459 ] } },
{ "type": "Feature", "properties": { "type": "Micro Brewer", "county": "Monroe", "official_business_name": "Founding Fathers Products Llc", "name": "Founding Fathers Brewing Co", "address": "445 St Paul St", "city": "Rochester", "state": "NY", "zip": 14605, "lat": 43.16493, "lng": -77.61437, "type_generic": "other" }, "geometry": { "type": "Point", "coordinates": [ -77.61437, 43.16493 ] } },
{ "type": "Feature", "properties": { "type": "Micro Brewer", "county": "Seneca", "official_business_name": "Three Brothers Wineries & Estates Llc", "name": "War Horse Brewing Company", "address": "623 Lerch Rd", "city": "Geneva", "state": "NY", "zip": 14456, "lat": 42.82332, "lng": -76.92369, "type_generic": "other" }, "geometry": { "type": "Point", "coordinates": [ -76.92369, 42.82332 ] } },
{ "type": "Feature", "properties": { "type": "Micro Brewer", "county": "Ontario", "official_business_name": "Chosen Spot Brewing Company Inc", "name": "Naked Dove Brewing Company", "address": "4048 Route 5 & 20", "city": "Canandaigua", "state": "NY", "zip": 14424, "lat": 42.86603789, "lng": -77.22316921, "type_generic": "other" }, "geometry": { "type": "Point", "coordinates": [ -77.22316921, 42.86603789 ] } },
{ "type": "Feature", "properties": { "type": "Micro Brewer", "county": "Monroe", "official_business_name": "Straub Brewery Inc", "name": "Straub Brewery ", "address": "445 St Paul St", "city": "Rochester", "state": "NY", "zip": 14605, "lat": 43.16459, "lng": -77.61446, "type_generic": "other" }, "geometry": { "type": "Point", "coordinates": [ -77.61446, 43.16459 ] } },
{ "type": "Feature", "properties": { "type": "Restaurant Brewer", "county": "Ontario", "official_business_name": "Dobbers Sports Bar & Grill Llc", "name": "Three Huskies Brewing", "address": "401 Lakeshore Dr", "city": "Canandaigua", "state": "NY", "zip": 14424, "lat": 42.87243, "lng": -77.25139, "type_generic": "other" }, "geometry": { "type": "Point", "coordinates": [ -77.25139, 42.87243 ] } },
{ "type": "Feature", "properties": { "type": "Farm Winery", "county": "Schuyler", "official_business_name": "Finger Lakes Distilling Llc", "name": "Finger Lakes Distilling ", "address": "4676 Nys Route 414", "city": "Burdett", "state": "NY", "zip": 14818, "lat": 42.4602, "lng": -76.8636, "type_generic": "winery" }, "geometry": { "type": "Point", "coordinates": [ -76.8636, 42.4602 ] } },
{ "type": "Feature", "properties": { "type": "Farm Winery", "county": "Ontario", "official_business_name": "Star Cider Llc", "name": "Star Cider ", "address": "3365 State Rte 364", "city": "Canandaigua", "state": "NY", "zip": 14424, "lat": 42.86634, "lng": -77.24983, "type_generic": "winery" }, "geometry": { "type": "Point", "coordinates": [ -77.24983, 42.86634 ] } },
{ "type": "Feature", "properties": { "type": "Farm Winery", "county": "Cayuga", "official_business_name": "Heart & Hands Wine Company Inc", "name": "Heart & Hands Wine Company ", "address": "4162 State Route 90N", "city": "Union Springs", "state": "NY", "zip": 13160, "lat": 42.86764647, "lng": -77.2302568, "type_generic": "winery" }, "geometry": { "type": "Point", "coordinates": [ -77.230256799999978, 42.86764647 ] } },
{ "type": "Feature", "properties": { "type": "Farm Winery", "county": "Seneca", "official_business_name": "Lamoreaux Landing Wine Cellars Llc", "name": "Lamoreaux Landing Wine", "address": "9224 Route 414", "city": "Lodi", "state": "NY", "zip": 14860, "lat": 42.57860189, "lng": -76.85718662, "type_generic": "winery" }, "geometry": { "type": "Point", "coordinates": [ -76.85718662, 42.57860189 ] } },
{ "type": "Feature", "properties": { "type": "Farm Winery", "county": "Seneca", "official_business_name": "Lakeshore Winery Inc", "name": "Lakeshore Winery", "address": "5132 Route 89", "city": "Romulus", "state": "NY", "zip": 14541, "lat": 42.77619937, "lng": -76.76969279, "type_generic": "winery" }, "geometry": { "type": "Point", "coordinates": [ -76.76969279, 42.77619937 ] } },
{ "type": "Feature", "properties": { "type": "Farm Winery", "county": "Schuyler", "official_business_name": "Lakewood Vineyards Inc", "name": "Lakewood Vineyards", "address": "4024 State Route 14", "city": "Watkins Glen", "state": "NY", "zip": 14891, "lat": 42.86542759, "lng": -77.2208879, "type_generic": "winery" }, "geometry": { "type": "Point", "coordinates": [ -77.220887900000022, 42.86542759000001 ] } },
{ "type": "Feature", "properties": { "type": "Farm Winery", "county": "Seneca", "official_business_name": "Wagner Winery Llc", "name": "Wagner Vineyards", "address": "9322 Route 414", "city": "Lodi", "state": "NY", "zip": 14860, "lat": 42.57353499, "lng": -76.85819852, "type_generic": "winery" }, "geometry": { "type": "Point", "coordinates": [ -76.85819852, 42.573534990000013 ] } },
{ "type": "Feature", "properties": { "type": "Farm Winery", "county": "Schuyler", "official_business_name": "Atwater Estate Vineyards Llc", "name": "Atwater Estate Vineyards ", "address": "5055 Rte 414", "city": "Burdett", "state": "NY", "zip": 14818, "lat": 42.47915893, "lng": -76.8693807, "type_generic": "winery" }, "geometry": { "type": "Point", "coordinates": [ -76.869380700000036, 42.47915893 ] } },
{ "type": "Feature", "properties": { "type": "Farm Winery", "county": "Seneca", "official_business_name": "Varick Winery & Vineyard Llc", "name": "Varick Winery & Vineyard ", "address": "5102 Rte 89", "city": "Romulus", "state": "NY", "zip": 14541, "lat": 42.77757904, "lng": -76.76979976, "type_generic": "winery" }, "geometry": { "type": "Point", "coordinates": [ -76.76979976, 42.77757904 ] } },
{ "type": "Feature", "properties": { "type": "Farm Winery", "county": "Seneca", "official_business_name": "Martins Honey Farm & Meadery Llc", "name": "Montezuma Winery", "address": "2981 Auburn Rd", "city": "Seneca Falls", "state": "NY", "zip": 13148, "lat": 42.9548491, "lng": -76.75689926, "type_generic": "winery" }, "geometry": { "type": "Point", "coordinates": [ -76.75689926, 42.9548491 ] } },
{ "type": "Feature", "properties": { "type": "Farm Winery", "county": "Schuyler", "official_business_name": "Damiani Wine Cellars Llc", "name": "Damiani Wine Cellars", "address": "5281 Peach Orchard Rd", "city": "Hector", "state": "NY", "zip": 14841, "lat": 42.49550126, "lng": -76.88101981, "type_generic": "winery" }, "geometry": { "type": "Point", "coordinates": [ -76.881019810000012, 42.49550126 ] } },
{ "type": "Feature", "properties": { "type": "Farm Winery", "county": "Steuben", "official_business_name": "Azure Hill Winery Inc", "name": "Azure Hill Winery", "address": "8716 Gallagher Road", "city": "Hammondsport", "state": "NY", "zip": 14840, "lat": 42.49809848, "lng": -77.18248984, "type_generic": "winery" }, "geometry": { "type": "Point", "coordinates": [ -77.18248984, 42.49809848 ] } },
{ "type": "Feature", "properties": { "type": "Farm Winery", "county": "Seneca", "official_business_name": "Three Brothers Wineries & Estates Llc", "name": "Stony Lonesome Wine Cellars\/Passion Feet Vineyards", "address": "623 Lerch Rd", "city": "Geneva", "state": "NY", "zip": 14456, "lat": 42.82041009, "lng": -76.92284593, "type_generic": "winery" }, "geometry": { "type": "Point", "coordinates": [ -76.92284593, 42.820410090000024 ] } },
{ "type": "Feature", "properties": { "type": "Farm Winery", "county": "Schuyler", "official_business_name": "Flwc Vineyards Inc", "name": "Chateau Lafayette Reneau", "address": "5081 Route 414", "city": "Hector", "state": "NY", "zip": 14841, "lat": 42.48132432, "lng": -76.86978658, "type_generic": "winery" }, "geometry": { "type": "Point", "coordinates": [ -76.86978658, 42.48132432 ] } },
{ "type": "Feature", "properties": { "type": "Farm Winery", "county": "Yates", "official_business_name": "Vineyard View Winery Llc", "name": "Vineyard View Winery", "address": "2971 Williams Hill Rd", "city": "Keuka Park", "state": "NY", "zip": 14478, "lat": 42.62327888, "lng": -77.10082872, "type_generic": "winery" }, "geometry": { "type": "Point", "coordinates": [ -77.10082872, 42.62327888 ] } },
{ "type": "Feature", "properties": { "type": "Farm Winery", "county": "Wayne", "official_business_name": "Celk Distilling Llc", "name": "Apple C'Ntry Spirits, Silverback Dist, Rootstock", "address": "3274 Eddy Rd", "city": "Williamson", "state": "NY", "zip": 14589, "lat": 43.2021, "lng": -77.2235, "type_generic": "winery" }, "geometry": { "type": "Point", "coordinates": [ -77.2235, 43.2021 ] } },
{ "type": "Feature", "properties": { "type": "Farm Winery", "county": "Ontario", "official_business_name": "New York State Wine And Culinary Center Inc, The", "name": "New York Kitchen", "address": "800 S Main St", "city": "Canandaigua", "state": "NY", "zip": 14424, "lat": 42.87631642, "lng": -77.27314285, "type_generic": "winery" }, "geometry": { "type": "Point", "coordinates": [ -77.27314285, 42.87631642 ] } },
{ "type": "Feature", "properties": { "type": "Farm Winery", "county": "Schuyler", "official_business_name": "Osmote Wine Llc", "name": "Osmote Wine ", "address": "5281 Peach Orchard Rd", "city": "Hector", "state": "NY", "zip": 14841, "lat": 42.49543, "lng": -76.88049, "type_generic": "winery" }, "geometry": { "type": "Point", "coordinates": [ -76.88049, 42.49543 ] } },
{ "type": "Feature", "properties": { "type": "Farm Winery", "county": "Livingston", "official_business_name": "Old Stumpblower Cider Works Llc", "name": "Original Stump Blower Ciderworks; Osb Ciderworks", "address": "5901 Big Tree Rd", "city": "Lakeville", "state": "NY", "zip": 14480, "lat": 42.83573, "lng": -77.69867, "type_generic": "winery" }, "geometry": { "type": "Point", "coordinates": [ -77.69867, 42.83573 ] } },
{ "type": "Feature", "properties": { "type": "Farm Winery", "county": "Tompkins", "official_business_name": "Six Mile Enterprises Llc", "name": "Six Mile Creek Vineyard", "address": "1551 Slaterville Rd", "city": "Ithaca", "state": "NY", "zip": 14850, "lat": 42.41575, "lng": -76.45534, "type_generic": "winery" }, "geometry": { "type": "Point", "coordinates": [ -76.45534, 42.41575 ] } },
{ "type": "Feature", "properties": { "type": "Farm Winery", "county": "Steuben", "official_business_name": "Forking Paths Vineyards Inc", "name": "Ravines Wine Cellars", "address": "10110 Hyatt Hill Rd", "city": "Dundee", "state": "NY", "zip": 14837, "lat": 42.4886, "lng": -77.11363, "type_generic": "winery" }, "geometry": { "type": "Point", "coordinates": [ -77.11363, 42.4886 ] } },
{ "type": "Feature", "properties": { "type": "Farm Winery", "county": "Schuyler", "official_business_name": "Valkyrie Crafted Libations Inc", "name": "Valkyrie Crafted Libations ", "address": "4732 Rte 414", "city": "Burdett", "state": "NY", "zip": 14818, "lat": 42.46233, "lng": -76.86494, "type_generic": "winery" }, "geometry": { "type": "Point", "coordinates": [ -76.86494, 42.46233 ] } },
{ "type": "Feature", "properties": { "type": "Farm Winery", "county": "Schuyler", "official_business_name": "Nine Four Wines Llc", "name": "Nine-Four Wines", "address": "5281 Peach Orchard Rd", "city": "Hector", "state": "NY", "zip": 14841, "lat": 42.49543, "lng": -76.88049, "type_generic": "winery" }, "geometry": { "type": "Point", "coordinates": [ -76.88049, 42.49543 ] } },
{ "type": "Feature", "properties": { "type": "Winery", "county": "Schuyler", "official_business_name": "Donna D Lucent", "name": "Pompous Ass Wine Company", "address": "4499 Route 14", "city": "Rock Stream", "state": "NY", "zip": 14878, "lat": 42.4511206, "lng": -76.90924779, "type_generic": "winery" }, "geometry": { "type": "Point", "coordinates": [ -76.90924779, 42.45112060000001 ] } },
{ "type": "Feature", "properties": { "type": "Winery", "county": "Yates", "official_business_name": "Point Of The Bluff Vineyard Llc", "name": "Point Of The Bluff Vineyard ", "address": "8524 Broadview Heights", "city": "Keuka Park", "state": "NY", "zip": 14478, "lat": 42.62001197, "lng": -77.09868161, "type_generic": "winery" }, "geometry": { "type": "Point", "coordinates": [ -77.09868161, 42.620011969999986 ] } },
{ "type": "Feature", "properties": { "type": "Winery", "county": "Schuyler", "official_business_name": "Valkyrie Crafted Libations Inc", "name": "Valkyrie Crafted Libations ", "address": "4732 Rte 414", "city": "Burdett", "state": "NY", "zip": 14818, "lat": 42.46233, "lng": -76.86494, "type_generic": "winery" }, "geometry": { "type": "Point", "coordinates": [ -76.86494, 42.46233 ] } },
{ "type": "Feature", "properties": { "type": "Winery", "county": "Steuben", "official_business_name": "Doyle Acquisition Corporation", "name": "Pleasant Valley Wine Co", "address": "8260 Pleasant Valley Rd", "city": "Hammondsport", "state": "NY", "zip": 14840, "lat": 42.40199963, "lng": -77.25173009, "type_generic": "winery" }, "geometry": { "type": "Point", "coordinates": [ -77.25173009, 42.40199963 ] } },
{ "type": "Feature", "properties": { "type": "Winery", "county": "Monroe", "official_business_name": "Lidestri Beverages Llc", "name": "Lidestri Spirits", "address": "1050 Lee Rd", "city": "Rochester", "state": "NY", "zip": 14606, "lat": 43.18771, "lng": -77.6798, "type_generic": "winery" }, "geometry": { "type": "Point", "coordinates": [ -77.6798, 43.18771 ] } },
{ "type": "Feature", "properties": { "type": "Winery", "county": "Ontario", "official_business_name": "Constellation Brands Inc", "name": "Constellation Brands ", "address": "116 Buffalo St", "city": "Canandaigua", "state": "NY", "zip": 14424, "lat": 42.89646521, "lng": -77.2938024, "type_generic": "winery" }, "geometry": { "type": "Point", "coordinates": [ -77.2938024, 42.89646521 ] } },
{ "type": "Feature", "properties": { "type": "Winery", "county": "Seneca", "official_business_name": "Swedish Hill Vineyard Inc", "name": "Swedish Hill Winery", "address": "4565 Route 414", "city": "Romulus", "state": "NY", "zip": 14541, "lat": 42.21985421, "lng": -76.97419268, "type_generic": "winery" }, "geometry": { "type": "Point", "coordinates": [ -76.97419268, 42.21985421 ] } },
{ "type": "Feature", "properties": { "type": "Winery", "county": "Steuben", "official_business_name": "Ito Wines Llc", "name": "Traveling Vineyard", "address": "8260 Pleasant Valley Rd", "city": "Hammondsport", "state": "NY", "zip": 14840, "lat": 42.40201416, "lng": -77.25183792, "type_generic": "winery" }, "geometry": { "type": "Point", "coordinates": [ -77.25183792, 42.402014160000014 ] } },
{ "type": "Feature", "properties": { "type": "Winery", "county": "Monroe", "official_business_name": "Living Roots Wine & Company Llc", "name": "Living Roots Wine & Company ", "address": "1255 University Ave", "city": "Rochester", "state": "NY", "zip": 14607, "lat": 43.15048, "lng": -77.56911, "type_generic": "winery" }, "geometry": { "type": "Point", "coordinates": [ -77.56911, 43.15048 ] } },
{ "type": "Feature", "properties": { "type": "Winery", "county": "Monroe", "official_business_name": "High Falls Operating Co Llc", "name": "North American Breweries", "address": "445 St Paul St", "city": "Rochester", "state": "NY", "zip": 14605, "lat": 43.16493105, "lng": -77.61437097, "type_generic": "winery" }, "geometry": { "type": "Point", "coordinates": [ -77.61437097000001, 43.16493105 ] } },
{ "type": "Feature", "properties": { "type": "Winery", "county": "Schuyler", "official_business_name": "J R Dill Winery Llc", "name": "J R Dill Winery", "address": "4922 State Route 414", "city": "Burdett", "state": "NY", "zip": 14818, "lat": 42.4714497, "lng": -76.86754395, "type_generic": "winery" }, "geometry": { "type": "Point", "coordinates": [ -76.86754395, 42.4714497 ] } },
{ "type": "Feature", "properties": { "type": "Winery", "county": "Seneca", "official_business_name": "Ventosa Vineyards Llc", "name": "Ventosa Vineyards", "address": "3440 Route 96A", "city": "Geneva", "state": "NY", "zip": 14456, "lat": 42.85906813, "lng": -76.93631553, "type_generic": "winery" }, "geometry": { "type": "Point", "coordinates": [ -76.93631553, 42.85906813 ] } },
{ "type": "Feature", "properties": { "type": "Winery", "county": "Tompkins", "official_business_name": "Ports Of New York Llc", "name": "Ports Of New York ", "address": "815 Taber St", "city": "Ithaca", "state": "NY", "zip": 14850, "lat": 42.43845773, "lng": -76.5135085, "type_generic": "winery" }, "geometry": { "type": "Point", "coordinates": [ -76.513508500000015, 42.438457729999989 ] } },
{ "type": "Feature", "properties": { "type": "Winery \/ Farm Winery Retail", "county": "Steuben", "official_business_name": "Doyle Acquisition Corporation", "name": "Pleasant Valley Wine Co", "address": "8260 Pleasant Valley Rd", "city": "Hammondsport", "state": "NY", "zip": 14840, "lat": 42.40199963, "lng": -77.25173009, "type_generic": "winery" }, "geometry": { "type": "Point", "coordinates": [ -77.25173009, 42.40199963 ] } }
]
}
